[
  {
    "point":{
      "lat":45.80229,
      "lng":-123.47255
    },
    "title":"41st Division",
    "url":"http:\/\/ortravelexperience.com\/oregon-historical-markers\/41st-infantry-division\/",
    "body":"",
    "address":null,
    "correctedAddress":null,
    "iconid":"info",
    "viewport":null,
    "user":false,
    "showPoiList":true,
    "poiListTemplate":"<td class='mapp-marker'>[icon]<\/td><td><b>[title]<\/b>[directions]<\/td>"
  },
  {
    "point":{
      "lat":45.35178,
      "lng":-122.6266
    },
    "title":"George Abernethy",
    "url":"http:\/\/ortravelexperience.com\/oregon-historical-markers\/abernethy-george\/",
    "body":"",
    "address":null,
    "correctedAddress":null,
    "iconid":"info",
    "viewport":null,
    "user":false,
    "showPoiList":true,
    "poiListTemplate":"<td class='mapp-marker'>[icon]<\/td><td><b>[title]<\/b>[directions]<\/td>"
  },
  {
    "point":{
      "lat":42.48743,
      "lng":-120.2781
    },
    "title":"Abert Rim",
    "url":"http:\/\/ortravelexperience.com\/oregon-historical-markers\/abert-rim-2\/",
    "body":"",
    "address":null,
    "correctedAddress":null,
    "iconid":"info",
    "viewport":null,
    "user":false,
    "showPoiList":true,
    "poiListTemplate":"<td class='mapp-marker'>[icon]<\/td><td><b>[title]<\/b>[directions]<\/td>"
  },
  {
    "point":{
      "lat":45.247103,
      "lng":-123.112338
    },
    "title":"Abigail Scott Duniway",
    "url":"http:\/\/ortravelexperience.com\/oregon-historical-markers\/abigail-scott-duniway\/",
    "body":"SE Jefferson and 8th St., Lafayette, OR",
    "address":null,
    "correctedAddress":null,
    "iconid":"info",
    "viewport":null,
    "user":false,
    "showPoiList":true,
    "poiListTemplate":"<td class='mapp-marker'>[icon]<\/td><td><b>[title]<\/b>[directions]<\/td>"
  },
  {
    "point":{
      "lat":44.40665,
      "lng":-122.29027
    },
    "title":"America\u2019s First Transcontinental Auto Race",
    "url":"http:\/\/ortravelexperience.com\/oregon-historical-markers\/americas-first-transcontinental-auto-race\/",
    "body":"",
    "address":null,
    "correctedAddress":null,
    "iconid":"info",
    "viewport":null,
    "user":false,
    "showPoiList":true,
    "poiListTemplate":"<td class='mapp-marker'>[icon]<\/td><td><b>[title]<\/b>[directions]<\/td>"
  },
  {
    "point":{
      "lat":43.29832,
      "lng":-118.97442
    },
    "title":"American Indian Seasonal Round",
    "url":"http:\/\/ortravelexperience.com\/oregon-historical-markers\/american-indian-seasonal-round\/",
    "body":"",
    "address":null,
    "correctedAddress":null,
    "iconid":"info",
    "viewport":null,
    "user":false,
    "showPoiList":true,
    "poiListTemplate":"<td class='mapp-marker'>[icon]<\/td><td><b>[title]<\/b>[directions]<\/td>"
  },
  {
    "point":{
      "lat":45.65006,
      "lng":-120.96059
    },
    "title":"Ancient Indian Fishing Grounds",
    "url":"http:\/\/ortravelexperience.com\/oregon-historical-markers\/ancient-indian-fishing-grounds\/",
    "body":"",
    "address":null,
    "correctedAddress":null,
    "iconid":"info",
    "viewport":null,
    "user":false,
    "showPoiList":true,
    "poiListTemplate":"<td class='mapp-marker'>[icon]<\/td><td><b>[title]<\/b>[directions]<\/td>"
  },
  {
    "point":{
      "lat":42.13608,
      "lng":-122.02861
    },
    "title":"Applegate Trail",
    "url":"http:\/\/ortravelexperience.com\/oregon-historical-markers\/applegate-trail\/",
    "body":"",
    "address":null,
    "correctedAddress":null,
    "iconid":"info",
    "viewport":null,
    "user":false,
    "showPoiList":true,
    "poiListTemplate":"<td class='mapp-marker'>[icon]<\/td><td><b>[title]<\/b>[directions]<\/td>"
  },
  {
    "point":{
      "lat":43.74929,
      "lng":-123.17605
    },
    "title":"Jesse Applegate",
    "url":"http:\/\/ortravelexperience.com\/oregon-historical-markers\/applegate-jesse\/",
    "body":"",
    "address":null,
    "correctedAddress":null,
    "iconid":"info",
    "viewport":null,
    "user":false,
    "showPoiList":true,
    "poiListTemplate":"<td class='mapp-marker'>[icon]<\/td><td><b>[title]<\/b>[directions]<\/td>"
  },
  {
    "point":{
      "lat":45.719574,
      "lng":-120.202532
    },
    "title":"Arlington",
    "url":"http:\/\/ortravelexperience.com\/oregon-trail-interpretive-sites\/arlington\/",
    "body":"",
    "address":null,
    "correctedAddress":null,
    "iconid":"wagon-wheel.png",
    "viewport":null,
    "user":false,
    "showPoiList":true,
    "poiListTemplate":"<td class='mapp-marker'>[icon]<\/td><td><b>[title]<\/b>[directions]<\/td>"
  },
  {
    "point":{
      "lat":45.2312,
      "lng":-122.75571
    },
    "title":"Aurora",
    "url":"http:\/\/ortravelexperience.com\/oregon-historical-markers\/aurora\/",
    "body":"",
    "address":null,
    "correctedAddress":null,
    "iconid":"info",
    "viewport":null,
    "user":false,
    "showPoiList":true,
    "poiListTemplate":"<td class='mapp-marker'>[icon]<\/td><td><b>[title]<\/b>[directions]<\/td>"
  },
  {
    "point":{
      "lat":44.78263,
      "lng":-117.81247
    },
    "title":"Baker",
    "url":"http:\/\/ortravelexperience.com\/oregon-historical-markers\/baker\/",
    "body":"",
    "address":null,
    "correctedAddress":null,
    "iconid":"info",
    "viewport":null,
    "user":false,
    "showPoiList":true,
    "poiListTemplate":"<td class='mapp-marker'>[icon]<\/td><td><b>[title]<\/b>[directions]<\/td>"
  },
  {
    "point":{
      "lat":45.388595,
      "lng":-122.496861
    },
    "title":"Baker Cabin",
    "url":"http:\/\/ortravelexperience.com\/oregon-trail-interpretive-sites\/baker-cabin\/",
    "body":"",
    "address":null,
    "correctedAddress":null,
    "iconid":"wagon-wheel.png",
    "viewport":null,
    "user":false,
    "showPoiList":true,
    "poiListTemplate":"<td class='mapp-marker'>[icon]<\/td><td><b>[title]<\/b>[directions]<\/td>"
  },
  {
    "point":{
      "lat":44.913748,
      "lng":-117.819078
    },
    "title":"Baker Valley",
    "url":"http:\/\/ortravelexperience.com\/oregon-trail-interpretive-sites\/baker-valley-rest-area\/",
    "body":"",
    "address":null,
    "correctedAddress":null,
    "iconid":"wagon-wheel.png",
    "viewport":null,
    "user":false,
    "showPoiList":true,
    "poiListTemplate":"<td class='mapp-marker'>[icon]<\/td><td><b>[title]<\/b>[directions]<\/td>"
  },
  {
    "point":{
      "lat":42.406893,
      "lng":-121.048756
    },
    "title":"Balloon Bomb",
    "url":"http:\/\/ortravelexperience.com\/oregon-historical-markers\/balloon-bomb\/",
    "body":"",
    "address":null,
    "correctedAddress":null,
    "iconid":"info",
    "viewport":null,
    "user":false,
    "showPoiList":true,
    "poiListTemplate":"<td class='mapp-marker'>[icon]<\/td><td><b>[title]<\/b>[directions]<\/td>"
  },
  {
    "point":{
      "lat":43.54152,
      "lng":-119.53978
    },
    "title":"Bannock War",
    "url":"http:\/\/ortravelexperience.com\/oregon-historical-markers\/bannock-war\/",
    "body":"",
    "address":null,
    "correctedAddress":null,
    "iconid":"info",
    "viewport":null,
    "user":false,
    "showPoiList":true,
    "poiListTemplate":"<td class='mapp-marker'>[icon]<\/td><td><b>[title]<\/b>[directions]<\/td>"
  },
  {
    "point":{
      "lat":45.26782,
      "lng":-118.97772
    },
    "title":"Battle Mountain",
    "url":"http:\/\/ortravelexperience.com\/oregon-historical-markers\/battle-mountain\/",
    "body":"",
    "address":null,
    "correctedAddress":null,
    "iconid":"info",
    "viewport":null,
    "user":false,
    "showPoiList":true,
    "poiListTemplate":"<td class='mapp-marker'>[icon]<\/td><td><b>[title]<\/b>[directions]<\/td>"
  },
  {
    "point":{
      "lat":45.63412,
      "lng":-121.95903
    },
    "title":"Beacon Rock",
    "url":"http:\/\/ortravelexperience.com\/oregon-historical-markers\/beacon-rock\/",
    "body":"",
    "address":null,
    "correctedAddress":null,
    "iconid":"info",
    "viewport":null,
    "user":false,
    "showPoiList":true,
    "poiListTemplate":"<td class='mapp-marker'>[icon]<\/td><td><b>[title]<\/b>[directions]<\/td>"
  },
  {
    "point":{
      "lat":45.398019,
      "lng":-118.316322
    },
    "title":"Blue Mountian Interpretive Park",
    "url":"http:\/\/ortravelexperience.com\/oregon-trail-interpretive-sites\/blue-mountain-interpretive-park\/",
    "body":"",
    "address":null,
    "correctedAddress":null,
    "iconid":"wagon-wheel.png",
    "viewport":null,
    "user":false,
    "showPoiList":true,
    "poiListTemplate":"<td class='mapp-marker'>[icon]<\/td><td><b>[title]<\/b>[directions]<\/td>"
  },
  {
    "point":{
      "lat":45.27119,
      "lng":-122.77514
    },
    "title":"Boone's Ferry",
    "url":"http:\/\/ortravelexperience.com\/oregon-historical-markers\/boones-ferry\/",
    "body":"",
    "address":null,
    "correctedAddress":null,
    "iconid":"info",
    "viewport":null,
    "user":false,
    "showPoiList":true,
    "poiListTemplate":"<td class='mapp-marker'>[icon]<\/td><td><b>[title]<\/b>[directions]<\/td>"
  },
  {
    "point":{
      "lat":45.29496,
      "lng":-122.77492
    },
    "title":"Boone\u2019s Landing",
    "url":"http:\/\/ortravelexperience.com\/oregon-historical-markers\/boones-landing\/",
    "body":"",
    "address":null,
    "correctedAddress":null,
    "iconid":"info",
    "viewport":null,
    "user":false,
    "showPoiList":true,
    "poiListTemplate":"<td class='mapp-marker'>[icon]<\/td><td><b>[title]<\/b>[directions]<\/td>"
  },
  {
    "point":{
      "lat":43.96988,
      "lng":-122.93964
    },
    "title":"Bristow Monument",
    "url":"http:\/\/ortravelexperience.com\/oregon-historical-markers\/bristow-monument\/",
    "body":"",
    "address":null,
    "correctedAddress":null,
    "iconid":"info",
    "viewport":null,
    "user":false,
    "showPoiList":true,
    "poiListTemplate":"<td class='mapp-marker'>[icon]<\/td><td><b>[title]<\/b>[directions]<\/td>"
  },
  {
    "point":{
      "lat":45.54279,
      "lng":-122.27551
    },
    "title":"Broughton\u2019s Expedition",
    "url":"http:\/\/ortravelexperience.com\/oregon-historical-markers\/broughtons-expedition\/",
    "body":"",
    "address":null,
    "correctedAddress":null,
    "iconid":"info",
    "viewport":null,
    "user":false,
    "showPoiList":true,
    "poiListTemplate":"<td class='mapp-marker'>[icon]<\/td><td><b>[title]<\/b>[directions]<\/td>"
  },
  {
    "point":{
      "lat":44.38768,
      "lng":-122.98885
    },
    "title":"Brownsville",
    "url":"http:\/\/ortravelexperience.com\/oregon-historical-markers\/brownsville\/",
    "body":"",
    "address":null,
    "correctedAddress":null,
    "iconid":"info",
    "viewport":null,
    "user":false,
    "showPoiList":true,
    "poiListTemplate":"<td class='mapp-marker'>[icon]<\/td><td><b>[title]<\/b>[directions]<\/td>"
  },
  {
    "point":{
      "lat":44.69953,
      "lng":-123.20842
    },
    "title":"Camp Adair",
    "url":"http:\/\/ortravelexperience.com\/oregon-historical-markers\/camp-adair-2\/",
    "body":"",
    "address":null,
    "correctedAddress":null,
    "iconid":"info",
    "viewport":null,
    "user":false,
    "showPoiList":true,
    "poiListTemplate":"<td class='mapp-marker'>[icon]<\/td><td><b>[title]<\/b>[directions]<\/td>"
  },
  {
    "point":{
      "lat":44.69969695094,
      "lng":-123.22038796295
    },
    "title":"Camp Adair",
    "url":"http:\/\/ortravelexperience.com\/oregon-historical-markers\/camp-adair\/",
    "body":"",
    "address":null,
    "correctedAddress":null,
    "iconid":"info",
    "viewport":null,
    "user":false,
    "showPoiList":true,
    "poiListTemplate":"<td class='mapp-marker'>[icon]<\/td><td><b>[title]<\/b>[directions]<\/td>"
  },
  {
    "point":{
      "lat":45.82031,
      "lng":-123.96065
    },
    "title":"Cannon Beach",
    "url":"http:\/\/ortravelexperience.com\/oregon-historical-markers\/cannon-beach\/",
    "body":"",
    "address":null,
    "correctedAddress":null,
    "iconid":"info",
    "viewport":null,
    "user":false,
    "showPoiList":true,
    "poiListTemplate":"<td class='mapp-marker'>[icon]<\/td><td><b>[title]<\/b>[directions]<\/td>"
  },
  {
    "point":{
      "lat":42.8911,
      "lng":-123.23856
    },
    "title":"Canyon Creek",
    "url":"http:\/\/ortravelexperience.com\/oregon-historical-markers\/canyon-creek\/",
    "body":"",
    "address":null,
    "correctedAddress":null,
    "iconid":"info",
    "viewport":null,
    "user":false,
    "showPoiList":true,
    "poiListTemplate":"<td class='mapp-marker'>[icon]<\/td><td><b>[title]<\/b>[directions]<\/td>"
  },
  {
    "point":{
      "lat":45.668712,
      "lng":-121.895424
    },
    "title":"Cascade Locks",
    "url":"http:\/\/ortravelexperience.com\/oregon-trail-interpretive-sites\/cascade-locks\/",
    "body":"",
    "address":null,
    "correctedAddress":null,
    "iconid":"wagon-wheel.png",
    "viewport":null,
    "user":false,
    "showPoiList":true,
    "poiListTemplate":"<td class='mapp-marker'>[icon]<\/td><td><b>[title]<\/b>[directions]<\/td>"
  },
  {
    "point":{
      "lat":44.912166694937,
      "lng":-117.93894784538
    },
    "title":"Cattle Drives",
    "url":"http:\/\/ortravelexperience.com\/oregon-historical-markers\/cattle-drives\/",
    "body":"Located in Haines City Park",
    "address":null,
    "correctedAddress":null,
    "iconid":"info",
    "viewport":null,
    "user":false,
    "showPoiList":true,
    "poiListTemplate":"<td class='mapp-marker'>[icon]<\/td><td><b>[title]<\/b>[directions]<\/td>"
  },
  {
    "point":{
      "lat":44.310398747731,
      "lng":-124.10774220105
    },
    "title":"Central Oregon Coast Region",
    "url":"http:\/\/ortravelexperience.com\/oregon-historical-markers\/central-coast-region\/",
    "body":"",
    "address":null,
    "correctedAddress":null,
    "iconid":"info",
    "viewport":null,
    "user":false,
    "showPoiList":true,
    "poiListTemplate":"<td class='mapp-marker'>[icon]<\/td><td><b>[title]<\/b>[directions]<\/td>"
  },
  {
    "point":{
      "lat":45.254322324345,
      "lng":-122.90200976196
    },
    "title":"Champoeg State Park",
    "url":"http:\/\/ortravelexperience.com\/oregon-historical-markers\/champoeg-state-park\/",
    "body":"",
    "address":null,
    "correctedAddress":null,
    "iconid":"info",
    "viewport":null,
    "user":false,
    "showPoiList":true,
    "poiListTemplate":"<td class='mapp-marker'>[icon]<\/td><td><b>[title]<\/b>[directions]<\/td>"
  },
  {
    "point":{
      "lat":45.235643,
      "lng":-118.01224
    },
    "title":"Charles Reynolds RA",
    "url":"http:\/\/ortravelexperience.com\/oregon-trail-interpretive-sites\/charles-reynolds-rest-area\/",
    "body":"",
    "address":null,
    "correctedAddress":null,
    "iconid":"wagon-wheel.png",
    "viewport":null,
    "user":false,
    "showPoiList":true,
    "poiListTemplate":"<td class='mapp-marker'>[icon]<\/td><td><b>[title]<\/b>[directions]<\/td>"
  },
  {
    "point":{
      "lat":45.653746,
      "lng":-121.210485
    },
    "title":"Columbia Gorge Discovery Center",
    "url":"http:\/\/ortravelexperience.com\/oregon-trail-interpretive-sites\/columbia-gorge-discovery-center\/",
    "body":"",
    "address":null,
    "correctedAddress":null,
    "iconid":"wagon-wheel.png",
    "viewport":null,
    "user":false,
    "showPoiList":true,
    "poiListTemplate":"<td class='mapp-marker'>[icon]<\/td><td><b>[title]<\/b>[directions]<\/td>"
  },
  {
    "point":{
      "lat":42.27885,
      "lng":-124.40446
    },
    "title":"Conflict at Pistol River",
    "url":"http:\/\/ortravelexperience.com\/oregon-historical-markers\/conflict-at-pistol-river\/",
    "body":"",
    "address":null,
    "correctedAddress":null,
    "iconid":"info",
    "viewport":null,
    "user":false,
    "showPoiList":true,
    "poiListTemplate":"<td class='mapp-marker'>[icon]<\/td><td><b>[title]<\/b>[directions]<\/td>"
  },
  {
    "point":{
      "lat":43.475990302678,
      "lng":-123.32008114547
    },
    "title":"Cow Creeks - A Tale of Strong Recovery",
    "url":"http:\/\/ortravelexperience.com\/oregon-historical-markers\/cow-creeks-a-tale-of-strong-recovery\/",
    "body":"",
    "address":null,
    "correctedAddress":null,
    "iconid":"info",
    "viewport":null,
    "user":false,
    "showPoiList":true,
    "poiListTemplate":"<td class='mapp-marker'>[icon]<\/td><td><b>[title]<\/b>[directions]<\/td>"
  },
  {
    "point":{
      "lat":43.9819,
      "lng":-117.2462
    },
    "title":"Cutoff Fever",
    "url":"http:\/\/ortravelexperience.com\/oregon-historical-markers\/cutoff-fever\/",
    "body":"",
    "address":null,
    "correctedAddress":null,
    "iconid":"info",
    "viewport":null,
    "user":false,
    "showPoiList":true,
    "poiListTemplate":"<td class='mapp-marker'>[icon]<\/td><td><b>[title]<\/b>[directions]<\/td>"
  },
  {
    "point":{
      "lat":45.35525,
      "lng":-120.78583
    },
    "title":"Cutoff to the Barlow Road",
    "url":"http:\/\/ortravelexperience.com\/oregon-historical-markers\/cutoff-to-the-barlow-road\/",
    "body":"",
    "address":null,
    "correctedAddress":null,
    "iconid":"info",
    "viewport":null,
    "user":false,
    "showPoiList":true,
    "poiListTemplate":"<td class='mapp-marker'>[icon]<\/td><td><b>[title]<\/b>[directions]<\/td>"
  },
  {
    "point":{
      "lat":45.221316420051,
      "lng":-123.07635113812
    },
    "title":"Dayton Blockhouse",
    "url":"http:\/\/ortravelexperience.com\/oregon-historical-markers\/dayton-blockhouse\/",
    "body":"",
    "address":null,
    "correctedAddress":null,
    "iconid":"info",
    "viewport":null,
    "user":false,
    "showPoiList":true,
    "poiListTemplate":"<td class='mapp-marker'>[icon]<\/td><td><b>[title]<\/b>[directions]<\/td>"
  },
  {
    "point":{
      "lat":42.182746255334,
      "lng":-122.65560203994
    },
    "title":"Dead Indian Memorial Road",
    "url":"http:\/\/ortravelexperience.com\/oregon-historical-markers\/dead-indian-memorial-road\/",
    "body":"",
    "address":null,
    "correctedAddress":null,
    "iconid":"info",
    "viewport":null,
    "user":false,
    "showPoiList":true,
    "poiListTemplate":"<td class='mapp-marker'>[icon]<\/td><td><b>[title]<\/b>[directions]<\/td>"
  },
  {
    "point":{
      "lat":45.601608,
      "lng":-118.508213
    },
    "title":"Deadman Pass",
    "url":"http:\/\/ortravelexperience.com\/oregon-trail-interpretive-sites\/deadman-pass-rest-area\/",
    "body":"",
    "address":null,
    "correctedAddress":null,
    "iconid":"wagon-wheel.png",
    "viewport":null,
    "user":false,
    "showPoiList":true,
    "poiListTemplate":"<td class='mapp-marker'>[icon]<\/td><td><b>[title]<\/b>[directions]<\/td>"
  },
  {
    "point":{
      "lat":45.90597,
      "lng":-122.81966
    },
    "title":"Deer Island",
    "url":"http:\/\/ortravelexperience.com\/oregon-historical-markers\/deer-island\/",
    "body":"",
    "address":null,
    "correctedAddress":null,
    "iconid":"info",
    "viewport":null,
    "user":false,
    "showPoiList":true,
    "poiListTemplate":"<td class='mapp-marker'>[icon]<\/td><td><b>[title]<\/b>[directions]<\/td>"
  },
  {
    "point":{
      "lat":45.634115995516,
      "lng":-120.91186027946
    },
    "title":"Deschutes River Crossing",
    "url":"http:\/\/ortravelexperience.com\/oregon-historical-markers\/deschutes-river-crossing\/",
    "body":"",
    "address":null,
    "correctedAddress":null,
    "iconid":"info",
    "viewport":null,
    "user":false,
    "showPoiList":true,
    "poiListTemplate":"<td class='mapp-marker'>[icon]<\/td><td><b>[title]<\/b>[directions]<\/td>"
  },
  {
    "point":{
      "lat":45.632849,
      "lng":-120.908886
    },
    "title":"Deschutes River State Recreation Area",
    "url":"http:\/\/ortravelexperience.com\/oregon-trail-interpretive-sites\/deschutes-river-state-recreation-area\/",
    "body":"",
    "address":null,
    "correctedAddress":null,
    "iconid":"wagon-wheel.png",
    "viewport":null,
    "user":false,
    "showPoiList":true,
    "poiListTemplate":"<td class='mapp-marker'>[icon]<\/td><td><b>[title]<\/b>[directions]<\/td>"
  },
  {
    "point":{
      "lat":45.064793,
      "lng":-117.88343
    },
    "title":"Marie Dorian",
    "url":"http:\/\/ortravelexperience.com\/oregon-historical-markers\/dorian-marie\/",
    "body":"",
    "address":null,
    "correctedAddress":null,
    "iconid":"info",
    "viewport":null,
    "user":false,
    "showPoiList":true,
    "poiListTemplate":"<td class='mapp-marker'>[icon]<\/td><td><b>[title]<\/b>[directions]<\/td>"
  },
  {
    "point":{
      "lat":45.453531,
      "lng":-121.130834
    },
    "title":"Dufur",
    "url":"http:\/\/ortravelexperience.com\/oregon-trail-interpretive-sites\/dufur\/",
    "body":"",
    "address":null,
    "correctedAddress":null,
    "iconid":"wagon-wheel.png",
    "viewport":null,
    "user":false,
    "showPoiList":true,
    "poiListTemplate":"<td class='mapp-marker'>[icon]<\/td><td><b>[title]<\/b>[directions]<\/td>"
  },
  {
    "point":{
      "lat":44.581584590222,
      "lng":-117.46448674942
    },
    "title":"Durkee",
    "url":"http:\/\/ortravelexperience.com\/oregon-historical-markers\/durkee\/",
    "body":"",
    "address":null,
    "correctedAddress":null,
    "iconid":"info",
    "viewport":null,
    "user":false,
    "showPoiList":true,
    "poiListTemplate":"<td class='mapp-marker'>[icon]<\/td><td><b>[title]<\/b>[directions]<\/td>"
  },
  {
    "point":{
      "lat":45.742371,
      "lng":-119.195791
    },
    "title":"Echo",
    "url":"http:\/\/ortravelexperience.com\/oregon-trail-interpretive-sites\/echo\/",
    "body":"",
    "address":null,
    "correctedAddress":null,
    "iconid":"wagon-wheel.png",
    "viewport":null,
    "user":false,
    "showPoiList":true,
    "poiListTemplate":"<td class='mapp-marker'>[icon]<\/td><td><b>[title]<\/b>[directions]<\/td>"
  },
  {
    "point":{
      "lat":45.740259,
      "lng":-119.220436
    },
    "title":"Echo Meadows",
    "url":"http:\/\/ortravelexperience.com\/oregon-trail-interpretive-sites\/echo-meadows\/",
    "body":"",
    "address":null,
    "correctedAddress":null,
    "iconid":"wagon-wheel.png",
    "viewport":null,
    "user":false,
    "showPoiList":true,
    "poiListTemplate":"<td class='mapp-marker'>[icon]<\/td><td><b>[title]<\/b>[directions]<\/td>"
  },
  {
    "point":{
      "lat":45.917331333569,
      "lng":-123.93849562698
    },
    "title":"Ecola",
    "url":"http:\/\/ortravelexperience.com\/oregon-historical-markers\/ecola\/",
    "body":"",
    "address":null,
    "correctedAddress":null,
    "iconid":"info",
    "viewport":null,
    "user":false,
    "showPoiList":true,
    "poiListTemplate":"<td class='mapp-marker'>[icon]<\/td><td><b>[title]<\/b>[directions]<\/td>"
  },
  {
    "point":{
      "lat":44.437133824633,
      "lng":-118.18101163483
    },
    "title":"Eldorado Ditch",
    "url":"http:\/\/ortravelexperience.com\/oregon-historical-markers\/eldorado-ditch\/",
    "body":"",
    "address":null,
    "correctedAddress":null,
    "iconid":"info",
    "viewport":null,
    "user":false,
    "showPoiList":true,
    "poiListTemplate":"<td class='mapp-marker'>[icon]<\/td><td><b>[title]<\/b>[directions]<\/td>"
  },
  {
    "point":{
      "lat":45.540917,
      "lng":-118.464729
    },
    "title":"Emigrant Springs",
    "url":"http:\/\/ortravelexperience.com\/oregon-historical-markers\/emigrant-springs-state-park-2\/",
    "body":"",
    "address":null,
    "correctedAddress":null,
    "iconid":"wagon-wheel.png",
    "viewport":null,
    "user":false,
    "showPoiList":true,
    "poiListTemplate":"<td class='mapp-marker'>[icon]<\/td><td><b>[title]<\/b>[directions]<\/td>"
  },
  {
    "point":{
      "lat":43.392835623737,
      "lng":-124.27989007732
    },
    "title":"Empire City",
    "url":"http:\/\/ortravelexperience.com\/oregon-historical-markers\/empire-city\/",
    "body":"",
    "address":null,
    "correctedAddress":null,
    "iconid":"info",
    "viewport":null,
    "user":false,
    "showPoiList":true,
    "poiListTemplate":"<td class='mapp-marker'>[icon]<\/td><td><b>[title]<\/b>[directions]<\/td>"
  },
  {
    "point":{
      "lat":45.364682,
      "lng":-122.594789
    },
    "title":"End of the Oregon Trail",
    "url":"http:\/\/ortravelexperience.com\/oregon-trail-interpretive-sites\/end-of-the-oregon-trail-historic-site\/",
    "body":"",
    "address":null,
    "correctedAddress":null,
    "iconid":"wagon-wheel.png",
    "viewport":null,
    "user":false,
    "showPoiList":true,
    "poiListTemplate":"<td class='mapp-marker'>[icon]<\/td><td><b>[title]<\/b>[directions]<\/td>"
  },
  {
    "point":{
      "lat":44.303559,
      "lng":-117.227563
    },
    "title":"Farewell Bend",
    "url":"http:\/\/ortravelexperience.com\/oregon-historical-markers\/farewell-bend\/",
    "body":"",
    "address":null,
    "correctedAddress":null,
    "iconid":"info",
    "viewport":null,
    "user":false,
    "showPoiList":true,
    "poiListTemplate":"<td class='mapp-marker'>[icon]<\/td><td><b>[title]<\/b>[directions]<\/td>"
  },
  {
    "point":{
      "lat":44.305685,
      "lng":-117.225688
    },
    "title":"Farewell Bend",
    "url":"http:\/\/ortravelexperience.com\/oregon-trail-interpretive-sites\/farewell-bend-state-park-birch-creek\/",
    "body":"",
    "address":null,
    "correctedAddress":null,
    "iconid":"wagon-wheel.png",
    "viewport":null,
    "user":false,
    "showPoiList":true,
    "poiListTemplate":"<td class='mapp-marker'>[icon]<\/td><td><b>[title]<\/b>[directions]<\/td>"
  },
  {
    "point":{
      "lat":44.515032415528,
      "lng":-124.07473068787
    },
    "title":"First Coastal Expeditions",
    "url":"http:\/\/ortravelexperience.com\/oregon-historical-markers\/first-coastal-expeditions\/",
    "body":"",
    "address":null,
    "correctedAddress":null,
    "iconid":"info",
    "viewport":null,
    "user":false,
    "showPoiList":true,
    "poiListTemplate":"<td class='mapp-marker'>[icon]<\/td><td><b>[title]<\/b>[directions]<\/td>"
  },
  {
    "point":{
      "lat":46.14287,
      "lng":-123.87439
    },
    "title":"Fort Clatsop",
    "url":"http:\/\/ortravelexperience.com\/oregon-historical-markers\/fort-clatsop\/",
    "body":"",
    "address":null,
    "correctedAddress":null,
    "iconid":"info",
    "viewport":null,
    "user":false,
    "showPoiList":true,
    "poiListTemplate":"<td class='mapp-marker'>[icon]<\/td><td><b>[title]<\/b>[directions]<\/td>"
  },
  {
    "point":{
      "lat":43.613428037878,
      "lng":-118.82179744705
    },
    "title":"Fort Harney",
    "url":"http:\/\/ortravelexperience.com\/oregon-historical-markers\/fort-harney\/",
    "body":"",
    "address":null,
    "correctedAddress":null,
    "iconid":"info",
    "viewport":null,
    "user":false,
    "showPoiList":true,
    "poiListTemplate":"<td class='mapp-marker'>[icon]<\/td><td><b>[title]<\/b>[directions]<\/td>"
  },
  {
    "point":{
      "lat":43.35526,
      "lng":-121.18092
    },
    "title":"Fort Rock",
    "url":"http:\/\/ortravelexperience.com\/oregon-historical-markers\/fort-rock\/",
    "body":"",
    "address":null,
    "correctedAddress":null,
    "iconid":"info",
    "viewport":null,
    "user":false,
    "showPoiList":true,
    "poiListTemplate":"<td class='mapp-marker'>[icon]<\/td><td><b>[title]<\/b>[directions]<\/td>"
  },
  {
    "point":{
      "lat":46.18422,
      "lng":-123.95682
    },
    "title":"Fort Stevens State Park",
    "url":"http:\/\/ortravelexperience.com\/oregon-historical-markers\/fort-stevens-state-park\/",
    "body":"",
    "address":null,
    "correctedAddress":null,
    "iconid":"info",
    "viewport":null,
    "user":false,
    "showPoiList":true,
    "poiListTemplate":"<td class='mapp-marker'>[icon]<\/td><td><b>[title]<\/b>[directions]<\/td>"
  },
  {
    "point":{
      "lat":45.626264,
      "lng":-122.655407
    },
    "title":"Fort Vancouver",
    "url":"http:\/\/ortravelexperience.com\/oregon-trail-interpretive-sites\/fort-vancouver-national-historic-site\/",
    "body":"",
    "address":null,
    "correctedAddress":null,
    "iconid":"wagon-wheel.png",
    "viewport":null,
    "user":false,
    "showPoiList":true,
    "poiListTemplate":"<td class='mapp-marker'>[icon]<\/td><td><b>[title]<\/b>[directions]<\/td>"
  },
  {
    "point":{
      "lat":45.645218,
      "lng":-120.081103
    },
    "title":"Fourmile Canyon",
    "url":"http:\/\/ortravelexperience.com\/oregon-trail-interpretive-sites\/fourmile-canyon\/",
    "body":"",
    "address":null,
    "correctedAddress":null,
    "iconid":"wagon-wheel.png",
    "viewport":null,
    "user":false,
    "showPoiList":true,
    "poiListTemplate":"<td class='mapp-marker'>[icon]<\/td><td><b>[title]<\/b>[directions]<\/td>"
  },
  {
    "point":{
      "lat":42.97198,
      "lng":-120.77835
    },
    "title":"Fremont Memorial",
    "url":"http:\/\/ortravelexperience.com\/oregon-historical-markers\/fremont-memorial\/",
    "body":"",
    "address":null,
    "correctedAddress":null,
    "iconid":"info",
    "viewport":null,
    "user":false,
    "showPoiList":true,
    "poiListTemplate":"<td class='mapp-marker'>[icon]<\/td><td><b>[title]<\/b>[directions]<\/td>"
  },
  {
    "point":{
      "lat":45.13733938197,
      "lng":-123.29442641797
    },
    "title":"Glacial Erratics",
    "url":"http:\/\/ortravelexperience.com\/oregon-historical-markers\/glacial-erratics\/",
    "body":"",
    "address":null,
    "correctedAddress":null,
    "iconid":"info",
    "viewport":null,
    "user":false,
    "showPoiList":true,
    "poiListTemplate":"<td class='mapp-marker'>[icon]<\/td><td><b>[title]<\/b>[directions]<\/td>"
  },
  {
    "point":{
      "lat":45.302241,
      "lng":-121.750295
    },
    "title":"Government Camp",
    "url":"http:\/\/ortravelexperience.com\/oregon-trail-interpretive-sites\/government-camp\/",
    "body":"",
    "address":null,
    "correctedAddress":null,
    "iconid":"wagon-wheel.png",
    "viewport":null,
    "user":false,
    "showPoiList":true,
    "poiListTemplate":"<td class='mapp-marker'>[icon]<\/td><td><b>[title]<\/b>[directions]<\/td>"
  },
  {
    "point":{
      "lat":45.058924383006,
      "lng":-123.61154845701
    },
    "title":"Grand Ronde Indian Reservation",
    "url":"http:\/\/ortravelexperience.com\/oregon-historical-markers\/grand-ronde-indian-reservation\/",
    "body":"",
    "address":null,
    "correctedAddress":null,
    "iconid":"info",
    "viewport":null,
    "user":false,
    "showPoiList":true,
    "poiListTemplate":"<td class='mapp-marker'>[icon]<\/td><td><b>[title]<\/b>[directions]<\/td>"
  },
  {
    "point":{
      "lat":45.559128,
      "lng":-123.928009
    },
    "title":"Captain Robert Gray",
    "url":"http:\/\/ortravelexperience.com\/oregon-historical-markers\/gray-captain-robert\/",
    "body":"",
    "address":null,
    "correctedAddress":null,
    "iconid":"info",
    "viewport":null,
    "user":false,
    "showPoiList":true,
    "poiListTemplate":"<td class='mapp-marker'>[icon]<\/td><td><b>[title]<\/b>[directions]<\/td>"
  },
  {
    "point":{
      "lat":43.64377,
      "lng":-118.62712
    },
    "title":"Great Basin",
    "url":"http:\/\/ortravelexperience.com\/oregon-historical-markers\/great-basin\/",
    "body":"",
    "address":null,
    "correctedAddress":null,
    "iconid":"info",
    "viewport":null,
    "user":false,
    "showPoiList":true,
    "poiListTemplate":"<td class='mapp-marker'>[icon]<\/td><td><b>[title]<\/b>[directions]<\/td>"
  },
  {
    "point":{
      "lat":44.924779288704,
      "lng":-124.01441248413
    },
    "title":"Great Tsunami of 1700",
    "url":"http:\/\/ortravelexperience.com\/oregon-historical-markers\/great-tsunami-of-1700-2\/",
    "body":"",
    "address":null,
    "correctedAddress":null,
    "iconid":"info",
    "viewport":null,
    "user":false,
    "showPoiList":true,
    "poiListTemplate":"<td class='mapp-marker'>[icon]<\/td><td><b>[title]<\/b>[directions]<\/td>"
  },
  {
    "point":{
      "lat":45.35344,
      "lng":-119.55134
    },
    "title":"Heppner Flood",
    "url":"http:\/\/ortravelexperience.com\/oregon-historical-markers\/heppner-flood\/",
    "body":"",
    "address":null,
    "correctedAddress":null,
    "iconid":"info",
    "viewport":null,
    "user":false,
    "showPoiList":true,
    "poiListTemplate":"<td class='mapp-marker'>[icon]<\/td><td><b>[title]<\/b>[directions]<\/td>"
  },
  {
    "point":{
      "lat":45.340699,
      "lng":-118.22422
    },
    "title":"Hilgard Junction",
    "url":"http:\/\/ortravelexperience.com\/oregon-trail-interpretive-sites\/hilgard-junction-state-park\/",
    "body":"",
    "address":null,
    "correctedAddress":null,
    "iconid":"wagon-wheel.png",
    "viewport":null,
    "user":false,
    "showPoiList":true,
    "poiListTemplate":"<td class='mapp-marker'>[icon]<\/td><td><b>[title]<\/b>[directions]<\/td>"
  },
  {
    "point":{
      "lat":45.33581,
      "lng":-118.10788
    },
    "title":"Historic La Grande",
    "url":"http:\/\/ortravelexperience.com\/oregon-historical-markers\/historic-la-grande\/",
    "body":"",
    "address":null,
    "correctedAddress":null,
    "iconid":"info",
    "viewport":null,
    "user":false,
    "showPoiList":true,
    "poiListTemplate":"<td class='mapp-marker'>[icon]<\/td><td><b>[title]<\/b>[directions]<\/td>"
  },
  {
    "point":{
      "lat":43.53003,
      "lng":-119.3023
    },
    "title":"Homeland of the Burns Paiute",
    "url":"http:\/\/ortravelexperience.com\/oregon-historical-markers\/homeland-of-the-burns-pauite\/",
    "body":"",
    "address":null,
    "correctedAddress":null,
    "iconid":"info",
    "viewport":null,
    "user":false,
    "showPoiList":true,
    "poiListTemplate":"<td class='mapp-marker'>[icon]<\/td><td><b>[title]<\/b>[directions]<\/td>"
  },
  {
    "point":{
      "lat":42.942995668547,
      "lng":-123.29346675659
    },
    "title":"Homeland of the Cow Creeks",
    "url":"http:\/\/ortravelexperience.com\/oregon-historical-markers\/homeland-of-the-cow-creeks\/",
    "body":"",
    "address":null,
    "correctedAddress":null,
    "iconid":"info",
    "viewport":null,
    "user":false,
    "showPoiList":true,
    "poiListTemplate":"<td class='mapp-marker'>[icon]<\/td><td><b>[title]<\/b>[directions]<\/td>"
  },
  {
    "point":{
      "lat":45.70546,
      "lng":-121.522093
    },
    "title":"Hood River",
    "url":"http:\/\/ortravelexperience.com\/oregon-trail-interpretive-sites\/hood-river\/",
    "body":"",
    "address":null,
    "correctedAddress":null,
    "iconid":"wagon-wheel.png",
    "viewport":null,
    "user":false,
    "showPoiList":true,
    "poiListTemplate":"<td class='mapp-marker'>[icon]<\/td><td><b>[title]<\/b>[directions]<\/td>"
  },
  {
    "point":{
      "lat":44.53258,
      "lng":-119.74396
    },
    "title":"Indian Trails",
    "url":"http:\/\/ortravelexperience.com\/oregon-historical-markers\/indian-trails\/",
    "body":"",
    "address":null,
    "correctedAddress":null,
    "iconid":"info",
    "viewport":null,
    "user":false,
    "showPoiList":true,
    "poiListTemplate":"<td class='mapp-marker'>[icon]<\/td><td><b>[title]<\/b>[directions]<\/td>"
  },
  {
    "point":{
      "lat":42.0557319,
      "lng":-124.2737503
    },
    "title":" Japanese Attack on Oregon",
    "url":"http:\/\/ortravelexperience.com\/oregon-historical-markers\/japanese-attack-on-oregon\/",
    "body":"Brookings, OR 97415",
    "address":"Constitution Rd, Brookings, OR 97415, USA",
    "correctedAddress":"Constitution Rd, Brookings, OR 97415, USA",
    "iconid":"info",
    "viewport":{
      "sw":{
        "lat":42.054360269709,
        "lng":-124.27509833029
      },
      "ne":{
        "lat":42.057058230292,
        "lng":-124.27240036971
      }
    },
    "user":false,
    "showPoiList":true,
    "poiListTemplate":"<td class='mapp-marker'>[icon]<\/td><td><b>[title]<\/b>[directions]<\/td>"
  },
  {
    "point":{
      "lat":45.588471,
      "lng":-120.409808
    },
    "title":"John Day River Crossing",
    "url":"http:\/\/ortravelexperience.com\/oregon-trail-interpretive-sites\/john-day-river-crossing\/",
    "body":"",
    "address":null,
    "correctedAddress":null,
    "iconid":"wagon-wheel.png",
    "viewport":null,
    "user":false,
    "showPoiList":true,
    "poiListTemplate":"<td class='mapp-marker'>[icon]<\/td><td><b>[title]<\/b>[directions]<\/td>"
  },
  {
    "point":{
      "lat":43.912487,
      "lng":-117.178459
    },
    "title":"Keeney Pass",
    "url":"http:\/\/ortravelexperience.com\/oregon-trail-interpretive-sites\/kenney-pass\/",
    "body":"",
    "address":null,
    "correctedAddress":null,
    "iconid":"wagon-wheel.png",
    "viewport":null,
    "user":false,
    "showPoiList":true,
    "poiListTemplate":"<td class='mapp-marker'>[icon]<\/td><td><b>[title]<\/b>[directions]<\/td>"
  },
  {
    "point":{
      "lat":45.332116,
      "lng":-118.071957
    },
    "title":"La Grande",
    "url":"http:\/\/ortravelexperience.com\/oregon-trail-interpretive-sites\/la-grande\/",
    "body":"",
    "address":null,
    "correctedAddress":null,
    "iconid":"wagon-wheel.png",
    "viewport":null,
    "user":false,
    "showPoiList":true,
    "poiListTemplate":"<td class='mapp-marker'>[icon]<\/td><td><b>[title]<\/b>[directions]<\/td>"
  },
  {
    "point":{
      "lat":45.302316,
      "lng":-121.773856
    },
    "title":"Laurel Hill",
    "url":"http:\/\/ortravelexperience.com\/oregon-trail-interpretive-sites\/laurel-hill-2\/",
    "body":"",
    "address":null,
    "correctedAddress":null,
    "iconid":"wagon-wheel.png",
    "viewport":null,
    "user":false,
    "showPoiList":true,
    "poiListTemplate":"<td class='mapp-marker'>[icon]<\/td><td><b>[title]<\/b>[directions]<\/td>"
  },
  {
    "point":{
      "lat":44.81203,
      "lng":-117.7542
    },
    "title":"Lone Tree of the Oregon Trail",
    "url":"http:\/\/ortravelexperience.com\/oregon-historical-markers\/lone-tree-of-the-oregon-trail\/",
    "body":"",
    "address":null,
    "correctedAddress":null,
    "iconid":"info",
    "viewport":null,
    "user":false,
    "showPoiList":true,
    "poiListTemplate":"<td class='mapp-marker'>[icon]<\/td><td><b>[title]<\/b>[directions]<\/td>"
  },
  {
    "point":{
      "lat":44.80816,
      "lng":-117.73186
    },
    "title":"Lure of Gold",
    "url":"http:\/\/ortravelexperience.com\/oregon-historical-markers\/lure-of-gold\/",
    "body":"",
    "address":null,
    "correctedAddress":null,
    "iconid":"info",
    "viewport":null,
    "user":false,
    "showPoiList":true,
    "poiListTemplate":"<td class='mapp-marker'>[icon]<\/td><td><b>[title]<\/b>[directions]<\/td>"
  },
  {
    "point":{
      "lat":45.74372,
      "lng":-122.87682
    },
    "title":"McKay, Thomas",
    "url":"http:\/\/ortravelexperience.com\/oregon-historical-markers\/mckay-thomas\/",
    "body":"",
    "address":null,
    "correctedAddress":null,
    "iconid":"info",
    "viewport":null,
    "user":false,
    "showPoiList":true,
    "poiListTemplate":"<td class='mapp-marker'>[icon]<\/td><td><b>[title]<\/b>[directions]<\/td>"
  },
  {
    "point":{
      "lat":45.35178,
      "lng":-122.6266
    },
    "title":"McLoughlin, Dr. John",
    "url":"http:\/\/ortravelexperience.com\/oregon-historical-markers\/mcloughlin-dr-john\/",
    "body":"",
    "address":null,
    "correctedAddress":null,
    "iconid":"info",
    "viewport":null,
    "user":false,
    "showPoiList":true,
    "poiListTemplate":"<td class='mapp-marker'>[icon]<\/td><td><b>[title]<\/b>[directions]<\/td>"
  },
  {
    "point":{
      "lat":45.50877,
      "lng":-118.42197
    },
    "title":"Meacham",
    "url":"http:\/\/ortravelexperience.com\/oregon-historical-markers\/meacham\/",
    "body":"",
    "address":null,
    "correctedAddress":null,
    "iconid":"info",
    "viewport":null,
    "user":false,
    "showPoiList":true,
    "poiListTemplate":"<td class='mapp-marker'>[icon]<\/td><td><b>[title]<\/b>[directions]<\/td>"
  },
  {
    "point":{
      "lat":45.57897,
      "lng":-122.97052
    },
    "title":"Meek, Joseph L",
    "url":"http:\/\/ortravelexperience.com\/oregon-historical-markers\/meek-joseph-l\/",
    "body":"",
    "address":null,
    "correctedAddress":null,
    "iconid":"info",
    "viewport":null,
    "user":false,
    "showPoiList":true,
    "poiListTemplate":"<td class='mapp-marker'>[icon]<\/td><td><b>[title]<\/b>[directions]<\/td>"
  },
  {
    "point":{
      "lat":45.69596,
      "lng":-121.33817
    },
    "title":"Memaloose Island",
    "url":"http:\/\/ortravelexperience.com\/oregon-historical-markers\/memaloose-island\/",
    "body":"",
    "address":null,
    "correctedAddress":null,
    "iconid":"info",
    "viewport":null,
    "user":false,
    "showPoiList":true,
    "poiListTemplate":"<td class='mapp-marker'>[icon]<\/td><td><b>[title]<\/b>[directions]<\/td>"
  },
  {
    "point":{
      "lat":45.695573,
      "lng":-121.338372
    },
    "title":"Memaloose Rest Area",
    "url":"http:\/\/ortravelexperience.com\/oregon-trail-interpretive-sites\/memaloose-rest-area\/",
    "body":"",
    "address":null,
    "correctedAddress":null,
    "iconid":"wagon-wheel.png",
    "viewport":null,
    "user":false,
    "showPoiList":true,
    "poiListTemplate":"<td class='mapp-marker'>[icon]<\/td><td><b>[title]<\/b>[directions]<\/td>"
  },
  {
    "point":{
      "lat":44.9415,
      "lng":-123.2285
    },
    "title":"Nesmith, James W",
    "url":"http:\/\/ortravelexperience.com\/oregon-historical-markers\/nesmith-james-w\/",
    "body":"",
    "address":null,
    "correctedAddress":null,
    "iconid":"info",
    "viewport":null,
    "user":false,
    "showPoiList":true,
    "poiListTemplate":"<td class='mapp-marker'>[icon]<\/td><td><b>[title]<\/b>[directions]<\/td>"
  },
  {
    "point":{
      "lat":45.424156085642,
      "lng":-117.29313165619
    },
    "title":"Nez Perce",
    "url":"http:\/\/ortravelexperience.com\/oregon-historical-markers\/nez-perce\/",
    "body":"",
    "address":null,
    "correctedAddress":null,
    "iconid":"info",
    "viewport":null,
    "user":false,
    "showPoiList":true,
    "poiListTemplate":"<td class='mapp-marker'>[icon]<\/td><td><b>[title]<\/b>[directions]<\/td>"
  },
  {
    "point":{
      "lat":42.64311,
      "lng":-121.88028
    },
    "title":"Ogden, Peter Skene ",
    "url":"http:\/\/ortravelexperience.com\/oregon-historical-markers\/ogden-peter-skene\/",
    "body":"",
    "address":null,
    "correctedAddress":null,
    "iconid":"info",
    "viewport":null,
    "user":false,
    "showPoiList":true,
    "poiListTemplate":"<td class='mapp-marker'>[icon]<\/td><td><b>[title]<\/b>[directions]<\/td>"
  },
  {
    "point":{
      "lat":43.74803,
      "lng":-118.07213
    },
    "title":"Ogden, Peter Skene ",
    "url":"http:\/\/ortravelexperience.com\/oregon-historical-markers\/ogden-peter-skene-2\/",
    "body":"",
    "address":null,
    "correctedAddress":null,
    "iconid":"info",
    "viewport":null,
    "user":false,
    "showPoiList":true,
    "poiListTemplate":"<td class='mapp-marker'>[icon]<\/td><td><b>[title]<\/b>[directions]<\/td>"
  },
  {
    "point":{
      "lat":44.3892,
      "lng":-121.18861
    },
    "title":"Ogden, Peter Skene",
    "url":"http:\/\/ortravelexperience.com\/oregon-historical-markers\/ogden-peter-skene-3\/",
    "body":"",
    "address":null,
    "correctedAddress":null,
    "iconid":"info",
    "viewport":null,
    "user":false,
    "showPoiList":true,
    "poiListTemplate":"<td class='mapp-marker'>[icon]<\/td><td><b>[title]<\/b>[directions]<\/td>"
  },
  {
    "point":{
      "lat":43.993617,
      "lng":-116.935902
    },
    "title":"Ontario Rest Area",
    "url":"http:\/\/ortravelexperience.com\/oregon-trail-interpretive-sites\/ontario-rest-area\/",
    "body":"",
    "address":null,
    "correctedAddress":null,
    "iconid":"wagon-wheel.png",
    "viewport":null,
    "user":false,
    "showPoiList":true,
    "poiListTemplate":"<td class='mapp-marker'>[icon]<\/td><td><b>[title]<\/b>[directions]<\/td>"
  },
  {
    "point":{
      "lat":45.35196,
      "lng":-122.6144
    },
    "title":"Oregon City",
    "url":"http:\/\/ortravelexperience.com\/oregon-historical-markers\/oregon-city\/",
    "body":"",
    "address":null,
    "correctedAddress":null,
    "iconid":"info",
    "viewport":null,
    "user":false,
    "showPoiList":true,
    "poiListTemplate":"<td class='mapp-marker'>[icon]<\/td><td><b>[title]<\/b>[directions]<\/td>"
  },
  {
    "point":{
      "lat":45.35196,
      "lng":-122.6144
    },
    "title":"Oregon City Falls",
    "url":"http:\/\/ortravelexperience.com\/oregon-historical-markers\/oregon-city-falls\/",
    "body":"",
    "address":null,
    "correctedAddress":null,
    "iconid":"info",
    "viewport":null,
    "user":false,
    "showPoiList":true,
    "poiListTemplate":"<td class='mapp-marker'>[icon]<\/td><td><b>[title]<\/b>[directions]<\/td>"
  },
  {
    "point":{
      "lat":44.814636,
      "lng":-117.728435
    },
    "title":"Interpretive Center",
    "url":"http:\/\/ortravelexperience.com\/oregon-trail-interpretive-sites\/national-historic-oregon-trail-interpretive-center\/",
    "body":"",
    "address":null,
    "correctedAddress":null,
    "iconid":"wagon-wheel.png",
    "viewport":null,
    "user":false,
    "showPoiList":true,
    "poiListTemplate":"<td class='mapp-marker'>[icon]<\/td><td><b>[title]<\/b>[directions]<\/td>"
  },
  {
    "point":{
      "lat":45.67226,
      "lng":-118.75461
    },
    "title":"Pendleton",
    "url":"http:\/\/ortravelexperience.com\/oregon-historical-markers\/pendleton\/",
    "body":"",
    "address":null,
    "correctedAddress":null,
    "iconid":"info",
    "viewport":null,
    "user":false,
    "showPoiList":true,
    "poiListTemplate":"<td class='mapp-marker'>[icon]<\/td><td><b>[title]<\/b>[directions]<\/td>"
  },
  {
    "point":{
      "lat":45.672274,
      "lng":-118.788857
    },
    "title":"Pendleton",
    "url":"http:\/\/ortravelexperience.com\/oregon-trail-interpretive-sites\/pendleton-2\/",
    "body":"",
    "address":null,
    "correctedAddress":null,
    "iconid":"wagon-wheel.png",
    "viewport":null,
    "user":false,
    "showPoiList":true,
    "poiListTemplate":"<td class='mapp-marker'>[icon]<\/td><td><b>[title]<\/b>[directions]<\/td>"
  },
  {
    "point":{
      "lat":45.358169,
      "lng":-122.354296
    },
    "title":"Philip Foster Farm",
    "url":"http:\/\/ortravelexperience.com\/oregon-trail-interpretive-sites\/philip-foster-farm\/",
    "body":"",
    "address":null,
    "correctedAddress":null,
    "iconid":"wagon-wheel.png",
    "viewport":null,
    "user":false,
    "showPoiList":true,
    "poiListTemplate":"<td class='mapp-marker'>[icon]<\/td><td><b>[title]<\/b>[directions]<\/td>"
  },
  {
    "point":{
      "lat":44.540515482487,
      "lng":-123.37066357672
    },
    "title":"Philomath College Marker",
    "url":"http:\/\/ortravelexperience.com\/oregon-historical-markers\/philomath\/",
    "body":"",
    "address":"1101 Main St, Philomath, OR 97370, USA",
    "correctedAddress":null,
    "iconid":"info",
    "viewport":null,
    "user":false,
    "showPoiList":true,
    "poiListTemplate":"<td class='mapp-marker'>[icon]<\/td><td><b>[title]<\/b>[directions]<\/td>"
  },
  {
    "point":{
      "lat":43.91791,
      "lng":-121.00855
    },
    "title":"Prehistoric River",
    "url":"http:\/\/ortravelexperience.com\/oregon-historical-markers\/prehistoric-river\/",
    "body":"",
    "address":null,
    "correctedAddress":null,
    "iconid":"info",
    "viewport":null,
    "user":false,
    "showPoiList":true,
    "poiListTemplate":"<td class='mapp-marker'>[icon]<\/td><td><b>[title]<\/b>[directions]<\/td>"
  },
  {
    "point":{
      "lat":42.684171,
      "lng":-119.306395
    },
    "title":"Rock Creek Reservoir",
    "url":"http:\/\/ortravelexperience.com\/oregon-trail-interpretive-sites\/rock-creek-reservoir\/",
    "body":"",
    "address":null,
    "correctedAddress":null,
    "iconid":"wagon-wheel.png",
    "viewport":null,
    "user":false,
    "showPoiList":true,
    "poiListTemplate":"<td class='mapp-marker'>[icon]<\/td><td><b>[title]<\/b>[directions]<\/td>"
  },
  {
    "point":{
      "lat":45.410261,
      "lng":-122.27353
    },
    "title":"Sandy",
    "url":"http:\/\/ortravelexperience.com\/oregon-trail-interpretive-sites\/sandy\/",
    "body":"",
    "address":null,
    "correctedAddress":null,
    "iconid":"wagon-wheel.png",
    "viewport":null,
    "user":false,
    "showPoiList":true,
    "poiListTemplate":"<td class='mapp-marker'>[icon]<\/td><td><b>[title]<\/b>[directions]<\/td>"
  },
  {
    "point":{
      "lat":45.53824,
      "lng":-122.37553
    },
    "title":"Sandy River Bridge",
    "url":"http:\/\/ortravelexperience.com\/oregon-historical-markers\/sandy-river-bridge\/",
    "body":"",
    "address":null,
    "correctedAddress":null,
    "iconid":"info",
    "viewport":null,
    "user":false,
    "showPoiList":true,
    "poiListTemplate":"<td class='mapp-marker'>[icon]<\/td><td><b>[title]<\/b>[directions]<\/td>"
  },
  {
    "point":{
      "lat":44.40665,
      "lng":-122.29027
    },
    "title":"Santiam Wagon Road",
    "url":"http:\/\/ortravelexperience.com\/oregon-historical-markers\/santiam-wagon-road\/",
    "body":"",
    "address":null,
    "correctedAddress":null,
    "iconid":"info",
    "viewport":null,
    "user":false,
    "showPoiList":true,
    "poiListTemplate":"<td class='mapp-marker'>[icon]<\/td><td><b>[title]<\/b>[directions]<\/td>"
  },
  {
    "point":{
      "lat":43.65405,
      "lng":-123.81356
    },
    "title":"Scottsburg",
    "url":"http:\/\/ortravelexperience.com\/oregon-historical-markers\/scottsburg\/",
    "body":"",
    "address":null,
    "correctedAddress":null,
    "iconid":"info",
    "viewport":null,
    "user":false,
    "showPoiList":true,
    "poiListTemplate":"<td class='mapp-marker'>[icon]<\/td><td><b>[title]<\/b>[directions]<\/td>"
  },
  {
    "point":{
      "lat":45.26199,
      "lng":-121.03011
    },
    "title":"Sherar\u2019s Bridge Area",
    "url":"http:\/\/ortravelexperience.com\/oregon-historical-markers\/sherars-bridge-area\/",
    "body":"",
    "address":null,
    "correctedAddress":null,
    "iconid":"info",
    "viewport":null,
    "user":false,
    "showPoiList":true,
    "poiListTemplate":"<td class='mapp-marker'>[icon]<\/td><td><b>[title]<\/b>[directions]<\/td>"
  },
  {
    "point":{
      "lat":43.831044,
      "lng":-117.033556
    },
    "title":"Snake River Crossing",
    "url":"http:\/\/ortravelexperience.com\/oregon-trail-interpretive-sites\/snake-river-crossing\/",
    "body":"",
    "address":null,
    "correctedAddress":null,
    "iconid":"wagon-wheel.png",
    "viewport":null,
    "user":false,
    "showPoiList":true,
    "poiListTemplate":"<td class='mapp-marker'>[icon]<\/td><td><b>[title]<\/b>[directions]<\/td>"
  },
  {
    "point":{
      "lat":43.72444,
      "lng":-117.08009
    },
    "title":"South Alternate Route of the Oregon Trail",
    "url":"http:\/\/ortravelexperience.com\/oregon-historical-markers\/south-alternate-route-of-the-oregon-trail\/",
    "body":"",
    "address":null,
    "correctedAddress":null,
    "iconid":"info",
    "viewport":null,
    "user":false,
    "showPoiList":true,
    "poiListTemplate":"<td class='mapp-marker'>[icon]<\/td><td><b>[title]<\/b>[directions]<\/td>"
  },
  {
    "point":{
      "lat":43.10992,
      "lng":-124.16218
    },
    "title":"Spruce Soldiers",
    "url":"http:\/\/ortravelexperience.com\/oregon-historical-markers\/spruce-soldiers\/",
    "body":"",
    "address":null,
    "correctedAddress":null,
    "iconid":"info",
    "viewport":null,
    "user":false,
    "showPoiList":true,
    "poiListTemplate":"<td class='mapp-marker'>[icon]<\/td><td><b>[title]<\/b>[directions]<\/td>"
  },
  {
    "point":{
      "lat":45.771968,
      "lng":-119.251013
    },
    "title":"Stanfield RA",
    "url":"http:\/\/ortravelexperience.com\/oregon-trail-interpretive-sites\/stanfield-rest-area\/",
    "body":"",
    "address":null,
    "correctedAddress":null,
    "iconid":"wagon-wheel.png",
    "viewport":null,
    "user":false,
    "showPoiList":true,
    "poiListTemplate":"<td class='mapp-marker'>[icon]<\/td><td><b>[title]<\/b>[directions]<\/td>"
  },
  {
    "point":{
      "lat":45.283553,
      "lng":-121.737227
    },
    "title":"Summit Meadow",
    "url":"http:\/\/ortravelexperience.com\/oregon-trail-interpretive-sites\/summit-meadow\/",
    "body":"",
    "address":null,
    "correctedAddress":null,
    "iconid":"wagon-wheel.png",
    "viewport":null,
    "user":false,
    "showPoiList":true,
    "poiListTemplate":"<td class='mapp-marker'>[icon]<\/td><td><b>[title]<\/b>[directions]<\/td>"
  },
  {
    "point":{
      "lat":45.90458,
      "lng":-123.76782
    },
    "title":"Sunset Highway",
    "url":"http:\/\/ortravelexperience.com\/oregon-historical-markers\/sunset-highway\/",
    "body":"",
    "address":null,
    "correctedAddress":null,
    "iconid":"info",
    "viewport":null,
    "user":false,
    "showPoiList":true,
    "poiListTemplate":"<td class='mapp-marker'>[icon]<\/td><td><b>[title]<\/b>[directions]<\/td>"
  },
  {
    "point":{
      "lat":45.654158,
      "lng":-118.663309
    },
    "title":"Tamastslikt",
    "url":"http:\/\/ortravelexperience.com\/oregon-trail-interpretive-sites\/tamastslikt-cultural-institute\/",
    "body":"",
    "address":null,
    "correctedAddress":null,
    "iconid":"wagon-wheel.png",
    "viewport":null,
    "user":false,
    "showPoiList":true,
    "poiListTemplate":"<td class='mapp-marker'>[icon]<\/td><td><b>[title]<\/b>[directions]<\/td>"
  },
  {
    "point":{
      "lat":43.61363,
      "lng":-118.82684
    },
    "title":"The Terrible Trail",
    "url":"http:\/\/ortravelexperience.com\/oregon-historical-markers\/terrible-trail\/",
    "body":"",
    "address":null,
    "correctedAddress":null,
    "iconid":"info",
    "viewport":null,
    "user":false,
    "showPoiList":true,
    "poiListTemplate":"<td class='mapp-marker'>[icon]<\/td><td><b>[title]<\/b>[directions]<\/td>"
  },
  {
    "point":{
      "lat":44.91859,
      "lng":-120.73379
    },
    "title":"The Dalles to Canyon City Wagon Road",
    "url":"http:\/\/ortravelexperience.com\/oregon-historical-markers\/the-dalles-to-canyon-city-wagon-road\/",
    "body":"",
    "address":null,
    "correctedAddress":null,
    "iconid":"info",
    "viewport":null,
    "user":false,
    "showPoiList":true,
    "poiListTemplate":"<td class='mapp-marker'>[icon]<\/td><td><b>[title]<\/b>[directions]<\/td>"
  },
  {
    "point":{
      "lat":45.80229,
      "lng":-123.47255
    },
    "title":"Tillamook Burn",
    "url":"http:\/\/ortravelexperience.com\/oregon-historical-markers\/tillamook-burn\/",
    "body":"",
    "address":null,
    "correctedAddress":null,
    "iconid":"info",
    "viewport":null,
    "user":false,
    "showPoiList":true,
    "poiListTemplate":"<td class='mapp-marker'>[icon]<\/td><td><b>[title]<\/b>[directions]<\/td>"
  },
  {
    "point":{
      "lat":45.619704,
      "lng":-123.381735
    },
    "title":"Tillamook Burn Historical Marker",
    "url":"http:\/\/ortravelexperience.com\/oregon-historical-markers\/tillamook-burn-2\/",
    "body":"",
    "address":null,
    "correctedAddress":null,
    "iconid":"info",
    "viewport":null,
    "user":false,
    "showPoiList":true,
    "poiListTemplate":"<td class='mapp-marker'>[icon]<\/td><td><b>[title]<\/b>[directions]<\/td>"
  },
  {
    "point":{
      "lat":45.330789,
      "lng":-121.711371
    },
    "title":"Timberline Lodge",
    "url":"http:\/\/ortravelexperience.com\/oregon-trail-interpretive-sites\/timberline-lodge\/",
    "body":"",
    "address":null,
    "correctedAddress":null,
    "iconid":"wagon-wheel.png",
    "viewport":null,
    "user":false,
    "showPoiList":true,
    "poiListTemplate":"<td class='mapp-marker'>[icon]<\/td><td><b>[title]<\/b>[directions]<\/td>"
  },
  {
    "point":{
      "lat":45.54468,
      "lng":-122.39812
    },
    "title":"Troutdale",
    "url":"http:\/\/ortravelexperience.com\/oregon-historical-markers\/troutdale\/",
    "body":"",
    "address":null,
    "correctedAddress":null,
    "iconid":"info",
    "viewport":null,
    "user":false,
    "showPoiList":true,
    "poiListTemplate":"<td class='mapp-marker'>[icon]<\/td><td><b>[title]<\/b>[directions]<\/td>"
  },
  {
    "point":{
      "lat":45.543103,
      "lng":-122.390592
    },
    "title":"Troutdale",
    "url":"http:\/\/ortravelexperience.com\/oregon-trail-interpretive-sites\/troutdale-2\/",
    "body":"",
    "address":null,
    "correctedAddress":null,
    "iconid":"wagon-wheel.png",
    "viewport":null,
    "user":false,
    "showPoiList":true,
    "poiListTemplate":"<td class='mapp-marker'>[icon]<\/td><td><b>[title]<\/b>[directions]<\/td>"
  },
  {
    "point":{
      "lat":45.992077286709,
      "lng":-123.93044551331
    },
    "title":"Tsunami - Seaside",
    "url":"http:\/\/ortravelexperience.com\/oregon-historical-markers\/tsunami-seaside\/",
    "body":"",
    "address":null,
    "correctedAddress":null,
    "iconid":"info",
    "viewport":null,
    "user":false,
    "showPoiList":true,
    "poiListTemplate":"<td class='mapp-marker'>[icon]<\/td><td><b>[title]<\/b>[directions]<\/td>"
  },
  {
    "point":{
      "lat":44.61767,
      "lng":-124.05147
    },
    "title":"Tsunami- Newport",
    "url":"http:\/\/ortravelexperience.com\/oregon-historical-markers\/tsunami\/",
    "body":"",
    "address":null,
    "correctedAddress":null,
    "iconid":"info",
    "viewport":null,
    "user":false,
    "showPoiList":true,
    "poiListTemplate":"<td class='mapp-marker'>[icon]<\/td><td><b>[title]<\/b>[directions]<\/td>"
  },
  {
    "point":{
      "lat":43.71032,
      "lng":-124.10065
    },
    "title":"Tsunami - Reedsport",
    "url":"http:\/\/ortravelexperience.com\/oregon-historical-markers\/tsunami-reedsport\/",
    "body":"",
    "address":null,
    "correctedAddress":null,
    "iconid":"info",
    "viewport":null,
    "user":false,
    "showPoiList":true,
    "poiListTemplate":"<td class='mapp-marker'>[icon]<\/td><td><b>[title]<\/b>[directions]<\/td>"
  },
  {
    "point":{
      "lat":45.245374,
      "lng":-121.173363
    },
    "title":"Tygh Valley",
    "url":"http:\/\/ortravelexperience.com\/oregon-trail-interpretive-sites\/tygh-valley\/",
    "body":"",
    "address":null,
    "correctedAddress":null,
    "iconid":"wagon-wheel.png",
    "viewport":null,
    "user":false,
    "showPoiList":true,
    "poiListTemplate":"<td class='mapp-marker'>[icon]<\/td><td><b>[title]<\/b>[directions]<\/td>"
  },
  {
    "point":{
      "lat":45.67525,
      "lng":-118.83349
    },
    "title":"Umatilla County",
    "url":"http:\/\/ortravelexperience.com\/oregon-historical-markers\/umatilla-county\/",
    "body":"",
    "address":null,
    "correctedAddress":null,
    "iconid":"info",
    "viewport":null,
    "user":false,
    "showPoiList":true,
    "poiListTemplate":"<td class='mapp-marker'>[icon]<\/td><td><b>[title]<\/b>[directions]<\/td>"
  },
  {
    "point":{
      "lat":42.22109,
      "lng":-121.79015
    },
    "title":"Upper Klamath Lake",
    "url":"http:\/\/ortravelexperience.com\/oregon-historical-markers\/upper-klamath-lake\/",
    "body":"",
    "address":null,
    "correctedAddress":null,
    "iconid":"info",
    "viewport":null,
    "user":false,
    "showPoiList":true,
    "poiListTemplate":"<td class='mapp-marker'>[icon]<\/td><td><b>[title]<\/b>[directions]<\/td>"
  },
  {
    "point":{
      "lat":43.982208,
      "lng":-117.23809
    },
    "title":"Vale",
    "url":"http:\/\/ortravelexperience.com\/oregon-trail-interpretive-sites\/vale\/",
    "body":"",
    "address":null,
    "correctedAddress":null,
    "iconid":"wagon-wheel.png",
    "viewport":null,
    "user":false,
    "showPoiList":true,
    "poiListTemplate":"<td class='mapp-marker'>[icon]<\/td><td><b>[title]<\/b>[directions]<\/td>"
  },
  {
    "point":{
      "lat":45.59799,
      "lng":-122.6864
    },
    "title":"Vanport",
    "url":"http:\/\/ortravelexperience.com\/oregon-historical-markers\/vanport\/",
    "body":"",
    "address":null,
    "correctedAddress":null,
    "iconid":"info",
    "viewport":null,
    "user":false,
    "showPoiList":true,
    "poiListTemplate":"<td class='mapp-marker'>[icon]<\/td><td><b>[title]<\/b>[directions]<\/td>"
  },
  {
    "point":{
      "lat":45.32223,
      "lng":-117.20249
    },
    "title":"Wallowa Lake",
    "url":"http:\/\/ortravelexperience.com\/oregon-historical-markers\/wallowa-lake\/",
    "body":"",
    "address":null,
    "correctedAddress":null,
    "iconid":"info",
    "viewport":null,
    "user":false,
    "showPoiList":true,
    "poiListTemplate":"<td class='mapp-marker'>[icon]<\/td><td><b>[title]<\/b>[directions]<\/td>"
  },
  {
    "point":{
      "lat":44.495266,
      "lng":-117.365978
    },
    "title":"Weatherby Rest Area",
    "url":"http:\/\/ortravelexperience.com\/oregon-trail-interpretive-sites\/weatherby-rest-area\/",
    "body":"",
    "address":null,
    "correctedAddress":null,
    "iconid":"wagon-wheel.png",
    "viewport":null,
    "user":false,
    "showPoiList":true,
    "poiListTemplate":"<td class='mapp-marker'>[icon]<\/td><td><b>[title]<\/b>[directions]<\/td>"
  },
  {
    "point":{
      "lat":45.596324,
      "lng":-119.695444
    },
    "title":"Well Springs",
    "url":"http:\/\/ortravelexperience.com\/oregon-trail-interpretive-sites\/well-springs\/",
    "body":"",
    "address":null,
    "correctedAddress":null,
    "iconid":"wagon-wheel.png",
    "viewport":null,
    "user":false,
    "showPoiList":true,
    "poiListTemplate":"<td class='mapp-marker'>[icon]<\/td><td><b>[title]<\/b>[directions]<\/td>"
  },
  {
    "point":{
      "lat":45.329718,
      "lng":-121.910155
    },
    "title":"West Barlow Tollgate",
    "url":"http:\/\/ortravelexperience.com\/oregon-trail-interpretive-sites\/west-barlow-tollgate\/",
    "body":"",
    "address":null,
    "correctedAddress":null,
    "iconid":"wagon-wheel.png",
    "viewport":null,
    "user":false,
    "showPoiList":true,
    "poiListTemplate":"<td class='mapp-marker'>[icon]<\/td><td><b>[title]<\/b>[directions]<\/td>"
  },
  {
    "point":{
      "lat":46.171349634593,
      "lng":-123.43629642461
    },
    "title":" \"Captain\" John West",
    "url":"http:\/\/ortravelexperience.com\/oregon-historical-markers\/west-captain-john\/",
    "body":"",
    "address":null,
    "correctedAddress":null,
    "iconid":"info",
    "viewport":null,
    "user":false,
    "showPoiList":true,
    "poiListTemplate":"<td class='mapp-marker'>[icon]<\/td><td><b>[title]<\/b>[directions]<\/td>"
  },
  {
    "point":{
      "lat":46.064462,
      "lng":-118.34507
    },
    "title":"Whitman Mission",
    "url":"http:\/\/ortravelexperience.com\/oregon-trail-interpretive-sites\/whitman-mission-national-historic-site\/",
    "body":"",
    "address":null,
    "correctedAddress":null,
    "iconid":"wagon-wheel.png",
    "viewport":null,
    "user":false,
    "showPoiList":true,
    "poiListTemplate":"<td class='mapp-marker'>[icon]<\/td><td><b>[title]<\/b>[directions]<\/td>"
  },
  {
    "point":{
      "lat":45.355975,
      "lng":-121.986523
    },
    "title":"Wildwood Recreation Site",
    "url":"http:\/\/ortravelexperience.com\/oregon-trail-interpretive-sites\/wildwood-recreation-site\/",
    "body":"",
    "address":null,
    "correctedAddress":null,
    "iconid":"wagon-wheel.png",
    "viewport":null,
    "user":false,
    "showPoiList":true,
    "poiListTemplate":"<td class='mapp-marker'>[icon]<\/td><td><b>[title]<\/b>[directions]<\/td>"
  },
  {
    "point":{
      "lat":45.351764920575,
      "lng":-122.62618562698
    },
    "title":"Willamette Falls",
    "url":"http:\/\/ortravelexperience.com\/oregon-historical-markers\/willamette-falls\/",
    "body":"",
    "address":null,
    "correctedAddress":null,
    "iconid":"info",
    "viewport":null,
    "user":false,
    "showPoiList":true,
    "poiListTemplate":"<td class='mapp-marker'>[icon]<\/td><td><b>[title]<\/b>[directions]<\/td>"
  },
  {
    "point":{
      "lat":45.35178,
      "lng":-122.62625
    },
    "title":"Willamette Falls Locks",
    "url":"http:\/\/ortravelexperience.com\/oregon-historical-markers\/willamette-falls-locks\/",
    "body":"",
    "address":null,
    "correctedAddress":null,
    "iconid":"info",
    "viewport":null,
    "user":false,
    "showPoiList":true,
    "poiListTemplate":"<td class='mapp-marker'>[icon]<\/td><td><b>[title]<\/b>[directions]<\/td>"
  },
  {
    "point":{
      "lat":45.26006,
      "lng":-122.94241
    },
    "title":"Willamette Post",
    "url":"http:\/\/ortravelexperience.com\/oregon-historical-markers\/willamette-post\/",
    "body":"",
    "address":null,
    "correctedAddress":null,
    "iconid":"info",
    "viewport":null,
    "user":false,
    "showPoiList":true,
    "poiListTemplate":"<td class='mapp-marker'>[icon]<\/td><td><b>[title]<\/b>[directions]<\/td>"
  },
  {
    "point":{
      "lat":45.519331,
      "lng":-122.744054
    },
    "title":"Willamette Stone",
    "url":"http:\/\/ortravelexperience.com\/oregon-historical-markers\/willamette-stone-the\/",
    "body":"",
    "address":null,
    "correctedAddress":null,
    "iconid":"info",
    "viewport":null,
    "user":false,
    "showPoiList":true,
    "poiListTemplate":"<td class='mapp-marker'>[icon]<\/td><td><b>[title]<\/b>[directions]<\/td>"
  },
  {
    "point":{
      "lat":42.646223,
      "lng":-121.879573
    },
    "title":"Williamson River",
    "url":"http:\/\/ortravelexperience.com\/oregon-historical-markers\/williamson-river\/",
    "body":"",
    "address":null,
    "correctedAddress":null,
    "iconid":"info",
    "viewport":null,
    "user":false,
    "showPoiList":true,
    "poiListTemplate":"<td class='mapp-marker'>[icon]<\/td><td><b>[title]<\/b>[directions]<\/td>"
  },
  {
    "point":{
      "lat":44.624513174018,
      "lng":-124.06485322754
    },
    "title":"Yaquina Bay",
    "url":"http:\/\/ortravelexperience.com\/oregon-historical-markers\/yaquina-bay\/",
    "body":"",
    "address":null,
    "correctedAddress":null,
    "iconid":"info",
    "viewport":null,
    "user":false,
    "showPoiList":true,
    "poiListTemplate":"<td class='mapp-marker'>[icon]<\/td><td><b>[title]<\/b>[directions]<\/td>"
  }
]